{"scores":[0.4236317753345854,0.45326157207205031,0.4660354775507955,0.47520979859220347,0.48234236641708572,0.48776809705990187,0.49219267316538629,0.4962928013505879,0.50023279302533719,0.50388522761659904,0.50729640277099031,0.51053775768365051,0.51337432384496462,0.51560906094241277,0.51728600904512623,0.51858306793195397,0.51966854794906014,0.52067117653610295,0.52171437975354973,0.52291445975752249,0.52434686282017717,0.52603042072491346,0.5279360009813947,0.52999679615839634,0.53210819918945085,0.53412305804087767,0.53586312398639568,0.53716878551601055,0.53797365844282319,0.53833812266518422,0.53840256807407461,0.53831766846825246,0.53821441495897981,0.53820061312757117,0.5383529498545192,0.53871154456545345,0.53929180135407639,0.54010377406845655,0.54115808062620752,0.5424480776361017,0.54392121408583249,0.54547832616554659,0.54702188462612189,0.5485034701684085,0.54991841357346216,0.55127614534014846,0.55258979385559837,0.55388032445236079,0.55517559851423859,0.55650289930323771,0.55788271446851423,0.55932707076100374,0.56084091156274007,0.56242413761186361,0.56407282738029063,0.56577910580852797,0.56752970605795372,0.5693036626364476,0.57107018833060064,0.57278856990665206,0.57441196158067709,0.57589519639269737,0.57720366010352175,0.5783186116025576,0.57923641545602944,0.57996357620789407,0.58051228410163025,0.58089985718339288,0.58115101630122612,0.58129866506621819,0.58138013212629847,0.58142868298500672,0.5814572477415525,0.58141103078646772,0.5810012602069059,0.57980264217807131,0.57825235587971746,0.57676082274561713,0.57549852986683614,0.5745171696341681,0.57379721241846127,0.57329850677726746,0.57298225965876159,0.57281497136365722,0.57276625487060429,0.57280671067513467,0.57290790488903875,0.57304434459203657,0.57319610643947849,0.57335044280621406,0.57350150588868209,0.57364858709315936,0.57379391411299863,0.57394084310309035,0.57409274409069455,0.57425248992649891,0.57442233251323549,0.57460397873745839,0.57479874877014991,0.5750077567956321,0.57523208797891878,0.57547296072009879,0.57573186760048545,0.57601068741847639,0.57631175752867292,0.57663789329319126,0.57699234341149475,0.5773786836596575,0.57780068850277677,0.57826229172251475,0.5787678515890422,0.57932303115337158,0.57993657975005475,0.58062295834696709,0.58140479245590226,0.58231224650808788,0.5833740086494914,0.58459532431136074,0.58593064540995066,0.58727996217861433,0.58853201153274104,0.58962282421790568,0.59055281780623514,0.59135962511724904,0.59208573167192446,0.59276270612400273,0.59340903614643337,0.59403352096003925,0.59463982313944352,0.59523059300997827,0.59581047546952881,0.59638751981849991,0.59697271753074743,0.59757765987929756,0.59821067440654141,0.59887249584607716,0.59955352021405151,0.60023499039133732,0.60089465621288329,0.60151413149755739,0.60208368732293271,0.60260249346907024,0.60307570516957354,0.6035109546828441,0.60391580578201687,0.604296444399402],"final":0.604296444399402,"stations":[{"position":{"latitude":42.3533,"longitude":-71.0444},"warped":{"latitude":42.358813486380903,"longitude":-71.045269237690334},"municipality":"Boston","id":1,"name":"Fan Pier"},{"position":{"latitude":42.3533,"longitude":-71.1373},"warped":{"latitude":42.343353613373324,"longitude":-71.117100016553536},"municipality":"Boston","id":2,"name":"Union Square - Brighton Ave. at Cambridge St."},{"position":{"latitude":42.3512,"longitude":-71.1156},"warped":{"latitude":42.335414607114558,"longitude":-71.100399675644979},"municipality":"Boston","id":3,"name":"Agganis Arena - 925 Comm Ave."},{"position":{"latitude":42.3504,"longitude":-71.1083},"warped":{"latitude":42.338564602245526,"longitude":-71.093173415115814},"municipality":"Boston","id":4,"name":"B.U. Central - 725 Comm. Ave."},{"position":{"latitude":42.3386,"longitude":-71.1065},"warped":{"latitude":42.344093770411888,"longitude":-71.105154957010143},"municipality":"Boston","id":5,"name":"Longwood Ave / Binney St"},{"position":{"latitude":42.3617,"longitude":-71.138},"warped":{"latitude":42.353030996221548,"longitude":-71.118964069452289},"municipality":"Boston","id":6,"name":"Harvard Real Estate - Brighton Mills - 370 Western Ave"},{"position":{"latitude":42.3651,"longitude":-71.1192},"warped":{"latitude":42.353135187548574,"longitude":-71.096772577411997},"municipality":"Boston","id":7,"name":"Harvard University Housing - 111 Western Ave. at Soldiers Field Park "},{"position":{"latitude":42.3472,"longitude":-71.1053},"warped":{"latitude":42.34384595147958,"longitude":-71.096717783256622},"municipality":"Boston","id":8,"name":"Buswell St. at Park Dr."},{"position":{"latitude":42.3413,"longitude":-71.0768},"warped":{"latitude":42.334239782778411,"longitude":-71.073461284224123},"municipality":"Boston","id":9,"name":"Tremont St / W Newton St"},{"position":{"latitude":42.3522,"longitude":-71.0555},"warped":{"latitude":42.34143543624144,"longitude":-71.061041883192956},"municipality":"Boston","id":10,"name":"South Station - 700 Atlantic Ave."},{"position":{"latitude":42.3637,"longitude":-71.1246},"warped":{"latitude":42.350980740697224,"longitude":-71.103595626845106},"municipality":"Boston","id":11,"name":"Innovation Lab - 125 Western Ave. at Batten Way"},{"position":{"latitude":42.3523,"longitude":-71.1238},"warped":{"latitude":42.342968600346182,"longitude":-71.105565906919708},"municipality":"Boston","id":12,"name":"Packard's Corner - Comm. Ave. at Brighton Ave."},{"position":{"latitude":42.3582,"longitude":-71.0522},"warped":{"latitude":42.358728911519677,"longitude":-71.056986993335386},"municipality":"Boston","id":13,"name":"John F Fitzgerald - Surface Road at India Street"},{"position":{"latitude":42.3486,"longitude":-71.134},"warped":{"latitude":42.335923161768591,"longitude":-71.108823523561455},"municipality":"Boston","id":14,"name":"Allston Green District - Commonwealth Ave & Griggs St"},{"position":{"latitude":42.3638,"longitude":-71.1292},"warped":{"latitude":42.351207637641579,"longitude":-71.110806764586016},"municipality":"Boston","id":15,"name":"Harvard University Transportation Services - 175 North Harvard St"},{"position":{"latitude":42.379,"longitude":-71.0686},"warped":{"latitude":42.372233799139444,"longitude":-71.077713569445805},"municipality":"Boston","id":16,"name":"Edwards Playground - Main Street & Eden Street"},{"position":{"latitude":42.3741,"longitude":-71.0691},"warped":{"latitude":42.382184505410976,"longitude":-71.07493298767659},"municipality":"Boston","id":17,"name":"Bunker Hill Community College"},{"position":{"latitude":42.3656,"longitude":-71.0642},"warped":{"latitude":42.356247228857143,"longitude":-71.067284744855527},"municipality":"Boston","id":18,"name":"Nashua Street at Red Auerbach Way"},{"position":{"latitude":42.3547,"longitude":-71.0533},"warped":{"latitude":42.348353912823136,"longitude":-71.057559388776298},"municipality":"Boston","id":19,"name":"Purchase St at Pearl St"},{"position":{"latitude":42.3798,"longitude":-71.0275},"warped":{"latitude":42.378170451653673,"longitude":-71.048897741638797},"municipality":"Boston","id":20,"name":"Chelsea St at Saratoga St"},{"position":{"latitude":42.3834,"longitude":-71.0161},"warped":{"latitude":42.369422506345892,"longitude":-71.043168183714187},"municipality":"Boston","id":21,"name":"Bennington St at Byron St"},{"position":{"latitude":42.3649,"longitude":-71.035},"warped":{"latitude":42.359432986247178,"longitude":-71.045612359920497},"municipality":"Boston","id":22,"name":"Piers Park- Marginal St at East Boston Shipyard"},{"position":{"latitude":42.3688,"longitude":-71.0398},"warped":{"latitude":42.353521433885334,"longitude":-71.054532276035317},"municipality":"Boston","id":23,"name":"Maverick Sq - Lewis Mall"},{"position":{"latitude":42.3696,"longitude":-71.0394},"warped":{"latitude":42.361666379169904,"longitude":-71.054170344931549},"municipality":"Boston","id":24,"name":"EBNHC - 20 Maverick Sq"},{"position":{"latitude":42.3754,"longitude":-71.0314},"warped":{"latitude":42.369158027600221,"longitude":-71.053410670400012},"municipality":"Boston","id":25,"name":"Airport T Stop - Bremen St at Brooks St"},{"position":{"latitude":42.3708,"longitude":-71.0443},"warped":{"latitude":42.360407094268936,"longitude":-71.062770224425051},"municipality":"Boston","id":26,"name":"The Eddy at New Street"},{"position":{"latitude":42.3824,"longitude":-71.0302},"warped":{"latitude":42.379113089287316,"longitude":-71.059338693693718},"municipality":"Boston","id":27,"name":"Glendon St at Condor St"},{"position":{"latitude":42.3867,"longitude":-71.0062},"warped":{"latitude":42.377486095921611,"longitude":-71.049286787816357},"municipality":"Boston","id":28,"name":"Orient Heights T Stop - Bennington St at Saratoga St"},{"position":{"latitude":42.3487,"longitude":-71.0858},"warped":{"latitude":42.348700000000001,"longitude":-71.085800000000006},"municipality":"Boston","id":30,"name":"Newbury St / Hereford St"},{"position":{"latitude":42.3359,"longitude":-71.0885},"warped":{"latitude":42.338705220476804,"longitude":-71.088088559704332},"municipality":"Boston","id":31,"name":"Ruggles Station / Columbus Ave."},{"position":{"latitude":42.3372,"longitude":-71.1028},"warped":{"latitude":42.341569462314531,"longitude":-71.098676871038904},"municipality":"Boston","id":32,"name":"HMS / HSPH - Ave. Louis Pasteur at Longwood Ave."},{"position":{"latitude":42.3598,"longitude":-71.0516},"warped":{"latitude":42.36189541172466,"longitude":-71.049352482886889},"municipality":"Boston","id":33,"name":"Aquarium Station - 200 Atlantic Ave."},{"position":{"latitude":42.3439,"longitude":-71.0859},"warped":{"latitude":42.343439482428607,"longitude":-71.077672941647506},"municipality":"Boston","id":34,"name":"Christian Science Plaza"},{"position":{"latitude":42.34,"longitude":-71.1008},"warped":{"latitude":42.350419418255733,"longitude":-71.096978352537263},"municipality":"Boston","id":35,"name":"Colleges of the Fenway"},{"position":{"latitude":42.3512,"longitude":-71.044},"warped":{"latitude":42.349867189504565,"longitude":-71.038999381203482},"municipality":"Boston","id":36,"name":"Seaport Square - Seaport Blvd. at Boston Wharf"},{"position":{"latitude":42.3589,"longitude":-71.0576},"warped":{"latitude":42.356613293907536,"longitude":-71.068549988997205},"municipality":"Boston","id":37,"name":"Mayor Martin J Walsh - 28 State St"},{"position":{"latitude":42.3487,"longitude":-71.097},"warped":{"latitude":42.345077605847699,"longitude":-71.086212955617455},"municipality":"Boston","id":38,"name":"Kenmore Sq / Comm Ave"},{"position":{"latitude":42.3447,"longitude":-71.0975},"warped":{"latitude":42.355491240019582,"longitude":-71.089838376651969},"municipality":"Boston","id":39,"name":"Yawkey Way at Boylston St."},{"position":{"latitude":42.3418,"longitude":-71.0902},"warped":{"latitude":42.346663597606735,"longitude":-71.08462048410324},"municipality":"Boston","id":40,"name":"Northeastern U / North Parking Lot"},{"position":{"latitude":42.3341,"longitude":-71.1052},"warped":{"latitude":42.336569598014641,"longitude":-71.106738788104963},"municipality":"Boston","id":41,"name":"Brigham Cir / Huntington Ave"},{"position":{"latitude":42.3488,"longitude":-71.0417},"warped":{"latitude":42.349586681132351,"longitude":-71.049399664789703},"municipality":"Boston","id":42,"name":"Seaport Hotel"},{"position":{"latitude":42.3439,"longitude":-71.1022},"warped":{"latitude":42.354158879681478,"longitude":-71.10238587990905},"municipality":"Boston","id":43,"name":"Landmark Centre"},{"position":{"latitude":42.3508,"longitude":-71.0899},"warped":{"latitude":42.351946709834621,"longitude":-71.092434129384543},"municipality":"Boston","id":44,"name":"Beacon St / Mass Ave"},{"position":{"latitude":42.3287,"longitude":-71.0842},"warped":{"latitude":42.33395966837314,"longitude":-71.082364284823655},"municipality":"Boston","id":45,"name":"Dudley Square"},{"position":{"latitude":42.3473,"longitude":-71.0881},"warped":{"latitude":42.353379172287163,"longitude":-71.082039861944679},"municipality":"Boston","id":46,"name":"Boylston / Mass Ave"},{"position":{"latitude":42.3457,"longitude":-71.1007},"warped":{"latitude":42.350610098306909,"longitude":-71.094540347217958},"municipality":"Boston","id":47,"name":"BIDMC - Brookline at Burlington St"},{"position":{"latitude":42.3376,"longitude":-71.0964},"warped":{"latitude":42.345151268998265,"longitude":-71.091842573012713},"municipality":"Boston","id":48,"name":"Wentworth Institute of Technology"},{"position":{"latitude":42.318,"longitude":-71.0823},"warped":{"latitude":42.316720736018354,"longitude":-71.084201680095461},"municipality":"Boston","id":49,"name":"Roxbury YMCA"},{"position":{"latitude":42.3217,"longitude":-71.0918},"warped":{"latitude":42.326650275113771,"longitude":-71.090651254903861},"municipality":"Boston","id":50,"name":"MLK Blvd at Washington St"},{"position":{"latitude":42.3188,"longitude":-71.0698},"warped":{"latitude":42.318935678629963,"longitude":-71.073403250634087},"municipality":"Boston","id":51,"name":"Upham's Corner T Stop"},{"position":{"latitude":42.3328,"longitude":-71.0813},"warped":{"latitude":42.327264399803042,"longitude":-71.087773117446403},"municipality":"Boston","id":52,"name":"Washington St at Melnea Cass Blvd"},{"position":{"latitude":42.3169,"longitude":-71.092},"warped":{"latitude":42.317313642005949,"longitude":-71.08586681234803},"municipality":"Boston","id":53,"name":"Walnut Ave at Crawford St"},{"position":{"latitude":42.308,"longitude":-71.0812},"warped":{"latitude":42.306389518891784,"longitude":-71.08322450205975},"municipality":"Boston","id":54,"name":"Grove Hall Library"},{"position":{"latitude":42.3096,"longitude":-71.0729},"warped":{"latitude":42.311763064915084,"longitude":-71.075500255247192},"municipality":"Boston","id":55,"name":"Columbia Rd at Ceylon St"},{"position":{"latitude":42.3241,"longitude":-71.0832},"warped":{"latitude":42.324743291783427,"longitude":-71.083782999053014},"municipality":"Boston","id":56,"name":"Walnut Ave at Warren St"},{"position":{"latitude":42.3079,"longitude":-71.065},"warped":{"latitude":42.318101819364685,"longitude":-71.0641287582377},"municipality":"Boston","id":57,"name":"Bowdoin St at Quincy St"},{"position":{"latitude":42.3454,"longitude":-71.0696},"warped":{"latitude":42.342969420802063,"longitude":-71.070449179552725},"municipality":"Boston","id":58,"name":"Tremont St. at Berkeley St."},{"position":{"latitude":42.3312,"longitude":-71.0952},"warped":{"latitude":42.334601784558551,"longitude":-71.094710130252849},"municipality":"Boston","id":59,"name":"Roxbury Crossing Station"},{"position":{"latitude":42.3364,"longitude":-71.0731},"warped":{"latitude":42.333952789400094,"longitude":-71.071939489415485},"municipality":"Boston","id":60,"name":"Boston Medical Center -  East Concord at Harrison Ave"},{"position":{"latitude":42.3481,"longitude":-71.0766},"warped":{"latitude":42.34255504440101,"longitude":-71.078431834992642},"municipality":"Boston","id":61,"name":"Back Bay / South End Station"},{"position":{"latitude":42.3349,"longitude":-71.0791},"warped":{"latitude":42.334713754619372,"longitude":-71.081394322333239},"municipality":"Boston","id":63,"name":"Washington St. at Lenox St."},{"position":{"latitude":42.3385,"longitude":-71.074},"warped":{"latitude":42.342499743239351,"longitude":-71.072860427581247},"municipality":"Boston","id":64,"name":"Washington St. at Rutland St."},{"position":{"latitude":42.346,"longitude":-71.0826},"warped":{"latitude":42.338350580769699,"longitude":-71.084341072427236},"municipality":"Boston","id":65,"name":"Prudential Center / Belvidere"},{"position":{"latitude":42.3488,"longitude":-71.0824},"warped":{"latitude":42.349032653018618,"longitude":-71.086363494692421},"municipality":"Boston","id":66,"name":"Boylston at Fairfield"},{"position":{"latitude":42.344,"longitude":-71.0571},"warped":{"latitude":42.329568052253798,"longitude":-71.062919263626924},"municipality":"Boston","id":67,"name":"Dorchester Ave. at Gillette Park"},{"position":{"latitude":42.3511,"longitude":-71.0496},"warped":{"latitude":42.343181081538994,"longitude":-71.051892619789001},"municipality":"Boston","id":68,"name":"Congress / Sleeper"},{"position":{"latitude":42.3307,"longitude":-71.057},"warped":{"latitude":42.325665476582095,"longitude":-71.056443996443093},"municipality":"Boston","id":69,"name":"Andrew Station - Dorchester Ave at Humboldt Pl"},{"position":{"latitude":42.3205,"longitude":-71.0511},"warped":{"latitude":42.333964126920684,"longitude":-71.052139773495398},"municipality":"Boston","id":70,"name":"JFK / UMASS at MBTA Station"},{"position":{"latitude":42.3139,"longitude":-71.0405},"warped":{"latitude":42.328252503807335,"longitude":-71.043731036765053},"municipality":"Boston","id":71,"name":"UMass Boston Integrated Sciences Complex"},{"position":{"latitude":42.3253,"longitude":-71.0754},"warped":{"latitude":42.325999280777431,"longitude":-71.076661626964295},"municipality":"Boston","id":72,"name":"Mt Pleasant Ave / Dudley Town Common"},{"position":{"latitude":42.3357,"longitude":-71.0459},"warped":{"latitude":42.329392629290908,"longitude":-71.044310799301883},"municipality":"Boston","id":73,"name":"West Broadway at Dorchester St"},{"position":{"latitude":42.3357,"longitude":-71.0388},"warped":{"latitude":42.338400482345875,"longitude":-71.041792234015688},"municipality":"Boston","id":74,"name":"South Boston Library - 646 East Broadway"},{"position":{"latitude":42.3206,"longitude":-71.062},"warped":{"latitude":42.335448267679268,"longitude":-71.062098205853317},"municipality":"Boston","id":75,"name":"E. Cottage St at Columbia Rd"},{"position":{"latitude":42.3176,"longitude":-71.064},"warped":{"latitude":42.327888144693247,"longitude":-71.06943263155928},"municipality":"Boston","id":76,"name":"Upham's Corner - Columbia Rd"},{"position":{"latitude":42.3448,"longitude":-71.0287},"warped":{"latitude":42.353228904100874,"longitude":-71.032585639500056},"municipality":"Boston","id":77,"name":"ID Building East"},{"position":{"latitude":42.3448,"longitude":-71.0316},"warped":{"latitude":42.343030571308034,"longitude":-71.033199610956871},"municipality":"Boston","id":78,"name":"ID Building West"},{"position":{"latitude":42.3266,"longitude":-71.0665},"warped":{"latitude":42.326388678772091,"longitude":-71.066292685881436},"municipality":"Boston","id":79,"name":"Mass Ave at Newmarket Square"},{"position":{"latitude":42.3364,"longitude":-71.0237},"warped":{"latitude":42.332462755833561,"longitude":-71.033955104708909},"municipality":"Boston","id":80,"name":"Day Boulevard"},{"position":{"latitude":42.3441,"longitude":-71.0526},"warped":{"latitude":42.335241969911252,"longitude":-71.055676794977586},"municipality":"Boston","id":81,"name":"State Street at Channel Center"},{"position":{"latitude":42.3459,"longitude":-71.0632},"warped":{"latitude":42.332473320116726,"longitude":-71.072020874567457},"municipality":"Boston","id":82,"name":"Ink Block"},{"position":{"latitude":42.3098,"longitude":-71.0922},"warped":{"latitude":42.308877905165502,"longitude":-71.092131464409803},"municipality":"Boston","id":83,"name":"Franklin Park - Seaver Street at Humbolt Ave"},{"position":{"latitude":42.3448,"longitude":-71.044},"warped":{"latitude":42.340604417491264,"longitude":-71.050098196937782},"municipality":"Boston","id":84,"name":"Lawn on D"},{"position":{"latitude":42.3391,"longitude":-71.0514},"warped":{"latitude":42.33041891593173,"longitude":-71.05129808576325},"municipality":"Boston","id":85,"name":"West Broadway at D Street"},{"position":{"latitude":42.3035,"longitude":-71.0854},"warped":{"latitude":42.316413485256483,"longitude":-71.087634714406335},"municipality":"Boston","id":86,"name":"Franklin Park Zoo"},{"position":{"latitude":42.3176,"longitude":-71.0567},"warped":{"latitude":42.326640908194648,"longitude":-71.060064236558432},"municipality":"Boston","id":87,"name":"Ryan Playground - Dorchester Avenue Station"},{"position":{"latitude":42.3482,"longitude":-71.0377},"warped":{"latitude":42.348846202598452,"longitude":-71.04148057496603},"municipality":"Boston","id":88,"name":"Congress St and Northern Ave"},{"position":{"latitude":42.3106,"longitude":-71.0539},"warped":{"latitude":42.322383812263588,"longitude":-71.052645213786533},"municipality":"Boston","id":89,"name":"Savin Hill MBTA Station"},{"position":{"latitude":42.3515,"longitude":-71.0457},"warped":{"latitude":42.348711618656246,"longitude":-71.046021585065432},"municipality":"Boston","id":90,"name":"Watermark Seaport"},{"position":{"latitude":42.3612,"longitude":-71.0651},"warped":{"latitude":42.359801723350472,"longitude":-71.074764735278663},"municipality":"Boston","id":91,"name":"Cambridge St. at Joy St."},{"position":{"latitude":42.3574,"longitude":-71.1478},"warped":{"latitude":42.345941958623506,"longitude":-71.109614817839457},"municipality":"Boston","id":92,"name":"New Balance - 20 Guest St."},{"position":{"latitude":42.3415,"longitude":-71.0689},"warped":{"latitude":42.336829541038952,"longitude":-71.063404827916628},"municipality":"Boston","id":93,"name":"Washington St. at Waltham St."},{"position":{"latitude":42.3554,"longitude":-71.0581},"warped":{"latitude":42.34756887234844,"longitude":-71.067649290527456},"municipality":"Boston","id":95,"name":"Franklin St. / Arch St."},{"position":{"latitude":42.3497,"longitude":-71.0773},"warped":{"latitude":42.341022051569269,"longitude":-71.087841979426912},"municipality":"Boston","id":96,"name":"Boston Public Library - 700 Boylston St."},{"position":{"latitude":42.3639,"longitude":-71.0509},"warped":{"latitude":42.365073967151986,"longitude":-71.055387745705332},"municipality":"Boston","id":97,"name":"Lewis Wharf - Atlantic Ave."},{"position":{"latitude":42.3526,"longitude":-71.0678},"warped":{"latitude":42.346549723778274,"longitude":-71.080446160130137},"municipality":"Boston","id":98,"name":"Boylston St. at Arlington St."},{"position":{"latitude":42.3571,"longitude":-71.0507},"warped":{"latitude":42.354022272266363,"longitude":-71.05199015250794},"municipality":"Boston","id":99,"name":"Rowes Wharf - Atlantic Ave"},{"position":{"latitude":42.3606,"longitude":-71.0574},"warped":{"latitude":42.363004659974095,"longitude":-71.062941558528195},"municipality":"Boston","id":100,"name":"Faneuil Hall - Union St. at North St."},{"position":{"latitude":42.3628,"longitude":-71.0561},"warped":{"latitude":42.356331527112985,"longitude":-71.057435700408334},"municipality":"Boston","id":101,"name":"Cross St. at Hanover St."},{"position":{"latitude":42.3511,"longitude":-71.0663},"warped":{"latitude":42.339717664543024,"longitude":-71.079918780162444},"municipality":"Boston","id":102,"name":"Stuart St. at Charles St."},{"position":{"latitude":42.3568,"longitude":-71.0554},"warped":{"latitude":42.352775243467633,"longitude":-71.062224448922649},"municipality":"Boston","id":103,"name":"Post Office Square"},{"position":{"latitude":42.351,"longitude":-71.0736},"warped":{"latitude":42.350523082429142,"longitude":-71.077822747947422},"municipality":"Boston","id":104,"name":"Boylston St / Berkeley St"},{"position":{"latitude":42.355,"longitude":-71.0633},"warped":{"latitude":42.349938827619198,"longitude":-71.074872323493167},"municipality":"Boston","id":105,"name":"Tremont St / West St"},{"position":{"latitude":42.3514,"longitude":-71.0594},"warped":{"latitude":42.338407974517523,"longitude":-71.066860255282307},"municipality":"Boston","id":106,"name":"Chinatown Gate Plaza - Surface Rd. at Beach St."},{"position":{"latitude":42.3606,"longitude":-71.0709},"warped":{"latitude":42.363498590893634,"longitude":-71.080497539978296},"municipality":"Boston","id":107,"name":"Charles Circle - Charles St. at Cambridge St."},{"position":{"latitude":42.3556,"longitude":-71.0728},"warped":{"latitude":42.353158733255036,"longitude":-71.088293157455894},"municipality":"Boston","id":108,"name":"The Esplanade - Beacon St. at Arlington St."},{"position":{"latitude":42.3475,"longitude":-71.0441},"warped":{"latitude":42.339673967379071,"longitude":-71.043250334443897},"municipality":"Boston","id":109,"name":"Boston Convention & Exhibition Center"},{"position":{"latitude":42.3524,"longitude":-71.0627},"warped":{"latitude":42.341147810753206,"longitude":-71.073933378697561},"municipality":"Boston","id":110,"name":"Boylston St / Washington St"},{"position":{"latitude":42.3756,"longitude":-71.0646},"warped":{"latitude":42.375147191439652,"longitude":-71.067377592491511},"municipality":"Boston","id":111,"name":"Charlestown - Main St at Austin St"},{"position":{"latitude":42.3718,"longitude":-71.0603},"warped":{"latitude":42.364800222863821,"longitude":-71.06244235039793},"municipality":"Boston","id":112,"name":"Charlestown - Warren St at Chelsea St"},{"position":{"latitude":42.3659,"longitude":-71.0645},"warped":{"latitude":42.365993528420468,"longitude":-71.071006525143204},"municipality":"Boston","id":113,"name":"TD Garden - West End Park (formerly TD Garden - Causeway at Portal Park #1)"},{"position":{"latitude":42.3783,"longitude":-71.0489},"warped":{"latitude":42.370683562211674,"longitude":-71.062668536655238},"municipality":"Boston","id":114,"name":"Spaulding Rehabilitation Hospital - Charlestown Navy Yard"},{"position":{"latitude":42.3561,"longitude":-71.0698},"warped":{"latitude":42.355096445659981,"longitude":-71.081863962804618},"municipality":"Boston","id":115,"name":"Charles St at Beacon St"},{"position":{"latitude":42.377,"longitude":-71.0566},"warped":{"latitude":42.366607023328072,"longitude":-71.06969186407585},"municipality":"Boston","id":116,"name":"Hayes Square at Vine St."},{"position":{"latitude":42.3504,"longitude":-71.0766},"warped":{"latitude":42.350482680566017,"longitude":-71.082999438745787},"municipality":"Boston","id":117,"name":"New Balance Store - Boylston at Dartmouth"},{"position":{"latitude":42.3489,"longitude":-71.1503},"warped":{"latitude":42.335056051276695,"longitude":-71.116095697123498},"municipality":"Boston","id":118,"name":"Brighton Center"},{"position":{"latitude":42.349,"longitude":-71.1604},"warped":{"latitude":42.326230616204221,"longitude":-71.116817273187294},"municipality":"Boston","id":119,"name":"Washington St at Brock St"},{"position":{"latitude":42.3548,"longitude":-71.1503},"warped":{"latitude":42.335721858116024,"longitude":-71.112175755303326},"municipality":"Boston","id":120,"name":"Market St at Faneuil St"},{"position":{"latitude":42.3505,"longitude":-71.1664},"warped":{"latitude":42.33277325421065,"longitude":-71.106698352385195},"municipality":"Boston","id":121,"name":"Oak Square YMCA"},{"position":{"latitude":42.3091,"longitude":-71.1154},"warped":{"latitude":42.323528098596029,"longitude":-71.097069597218521},"municipality":"Boston","id":122,"name":"Curtis Hall at South Street"},{"position":{"latitude":42.321,"longitude":-71.1108},"warped":{"latitude":42.32115766667728,"longitude":-71.106104836289816},"municipality":"Boston","id":124,"name":"Hyde Square at Barbara St"},{"position":{"latitude":42.3157,"longitude":-71.0986},"warped":{"latitude":42.319550087101803,"longitude":-71.095629311244934},"municipality":"Boston","id":125,"name":"Egleston Square at Columbus Ave"},{"position":{"latitude":42.3106,"longitude":-71.1073},"warped":{"latitude":42.31307108966412,"longitude":-71.099904065209387},"municipality":"Boston","id":126,"name":"Green St T"},{"position":{"latitude":42.3229,"longitude":-71.1003},"warped":{"latitude":42.32834067578775,"longitude":-71.100820564208462},"municipality":"Boston","id":127,"name":"Jackson Square T at Centre St"},{"position":{"latitude":42.328,"longitude":-71.1109},"warped":{"latitude":42.328952865986146,"longitude":-71.111242323347568},"municipality":"Boston","id":128,"name":"Heath St at South Huntington"},{"position":{"latitude":42.3416,"longitude":-71.1233},"warped":{"latitude":42.335460129504597,"longitude":-71.11032561615923},"municipality":"Brookline","id":129,"name":"Coolidge Corner - Beacon St @ Centre St"},{"position":{"latitude":42.3393,"longitude":-71.1349},"warped":{"latitude":42.32623022917732,"longitude":-71.108025825058519},"municipality":"Brookline","id":130,"name":"Washington Square at Washington St. / Beacon St."},{"position":{"latitude":42.3466,"longitude":-71.1284},"warped":{"latitude":42.333593548227199,"longitude":-71.10029487195709},"municipality":"Brookline","id":131,"name":"JFK Crossing at Harvard St. / Thorndike St."},{"position":{"latitude":42.3329,"longitude":-71.1166},"warped":{"latitude":42.332173014630051,"longitude":-71.100745681666339},"municipality":"Brookline","id":132,"name":"Brookline Village - Station Street @ MBTA"},{"position":{"latitude":42.3707,"longitude":-71.0765},"warped":{"latitude":42.371737091001137,"longitude":-71.076400279810443},"municipality":"Cambridge","id":133,"name":"Lechmere Station at Cambridge St / First St"},{"position":{"latitude":42.3663,"longitude":-71.0917},"warped":{"latitude":42.369676045485882,"longitude":-71.091532990747822},"municipality":"Cambridge","id":134,"name":"One Kendall Square at Hampshire St / Portland St"},{"position":{"latitude":42.3626,"longitude":-71.0841},"warped":{"latitude":42.359921258574097,"longitude":-71.089649441016874},"municipality":"Cambridge","id":135,"name":"One Broadway / Kendall Sq at Main St / 3rd St"},{"position":{"latitude":42.3624,"longitude":-71.085},"warped":{"latitude":42.35903752937493,"longitude":-71.086179312057055},"municipality":"Cambridge","id":136,"name":"Kendall T"},{"position":{"latitude":42.362,"longitude":-71.0921},"warped":{"latitude":42.363823350913336,"longitude":-71.083004370915276},"municipality":"Cambridge","id":137,"name":"MIT Stata Center at Vassar St / Main St"},{"position":{"latitude":42.3581,"longitude":-71.0932},"warped":{"latitude":42.354586102608323,"longitude":-71.086529352438376},"municipality":"Cambridge","id":138,"name":"MIT at Mass Ave / Amherst St"},{"position":{"latitude":42.373,"longitude":-71.0944},"warped":{"latitude":42.375027457632868,"longitude":-71.083495664497462},"municipality":"Cambridge","id":139,"name":"Cambridge St - at Columbia St / Webster Ave"},{"position":{"latitude":42.3635,"longitude":-71.1006},"warped":{"latitude":42.362582128749843,"longitude":-71.084517945840901},"municipality":"Cambridge","id":140,"name":"Lafayette Square at Mass Ave / Main St / Columbia St"},{"position":{"latitude":42.374,"longitude":-71.1014},"warped":{"latitude":42.368393568760268,"longitude":-71.077456044784427},"municipality":"Cambridge","id":141,"name":"Inman Square at Vellucci Plaza / Hampshire St"},{"position":{"latitude":42.3651,"longitude":-71.1031},"warped":{"latitude":42.359846183717508,"longitude":-71.083903088853546},"municipality":"Cambridge","id":142,"name":"Central Square at Mass Ave / Essex St"},{"position":{"latitude":42.3664,"longitude":-71.1055},"warped":{"latitude":42.354517678481066,"longitude":-71.080694572244269},"municipality":"Cambridge","id":143,"name":"Central Sq Post Office / Cambridge City Hall at Mass Ave / Pleasant St"},{"position":{"latitude":42.3734,"longitude":-71.1111},"warped":{"latitude":42.361294091937566,"longitude":-71.082008902869319},"municipality":"Cambridge","id":144,"name":"Cambridge Main Library at Broadway / Trowbridge St"},{"position":{"latitude":42.3666,"longitude":-71.1142},"warped":{"latitude":42.354860485224116,"longitude":-71.089280160845178},"municipality":"Cambridge","id":145,"name":"Harvard University Housing - 115 Putnam Ave at Peabody Terrace"},{"position":{"latitude":42.372,"longitude":-71.1223},"warped":{"latitude":42.359810081436081,"longitude":-71.103139264795772},"municipality":"Cambridge","id":146,"name":"Harvard Kennedy School at Bennett St / Eliot St"},{"position":{"latitude":42.3732,"longitude":-71.1209},"warped":{"latitude":42.364883226874312,"longitude":-71.098188935121428},"municipality":"Cambridge","id":147,"name":"Harvard Square at Brattle St / Eliot St"},{"position":{"latitude":42.3733,"longitude":-71.1186},"warped":{"latitude":42.366024826721933,"longitude":-71.088619496172555},"municipality":"Cambridge","id":148,"name":"Harvard Square at Mass Ave/ Dunster"},{"position":{"latitude":42.367,"longitude":-71.0765},"warped":{"latitude":42.369806179437688,"longitude":-71.086834235227911},"municipality":"Cambridge","id":149,"name":"CambridgeSide Galleria - CambridgeSide PL at Land Blvd"},{"position":{"latitude":42.379,"longitude":-71.1199},"warped":{"latitude":42.371945136804392,"longitude":-71.097008810321952},"municipality":"Cambridge","id":150,"name":"Harvard Law School at Mass Ave / Jarvis St"},{"position":{"latitude":42.3764,"longitude":-71.114},"warped":{"latitude":42.373044695500994,"longitude":-71.081458851420081},"municipality":"Cambridge","id":151,"name":"Harvard University Gund Hall at Quincy St / Kirkland S"},{"position":{"latitude":42.357,"longitude":-71.1137},"warped":{"latitude":42.344922828553102,"longitude":-71.09618357269072},"municipality":"Cambridge","id":152,"name":"Lower Cambridgeport at Magazine St/Riverside Rd"},{"position":{"latitude":42.3779,"longitude":-71.1169},"warped":{"latitude":42.373382511278912,"longitude":-71.089681044401033},"municipality":"Cambridge","id":153,"name":"Harvard University / SEAS Cruft-Pierce Halls at 29 Oxford St"},{"position":{"latitude":42.3803,"longitude":-71.1251},"warped":{"latitude":42.370682455248286,"longitude":-71.106202142595194},"municipality":"Cambridge","id":154,"name":"Harvard University Radcliffe Quadrangle at Shepard St / Garden St"},{"position":{"latitude":42.3978,"longitude":-71.1305},"warped":{"latitude":42.371846976163027,"longitude":-71.108697673208184},"municipality":"Cambridge","id":155,"name":"Linear Park - Mass. Ave. at Cameron Ave. "},{"position":{"latitude":42.3708,"longitude":-71.1044},"warped":{"latitude":42.360836092059145,"longitude":-71.073853705927405},"municipality":"Cambridge","id":156,"name":"359 Broadway - Broadway at Fayette Street"},{"position":{"latitude":42.3661,"longitude":-71.0864},"warped":{"latitude":42.367986446932164,"longitude":-71.083234596734769},"municipality":"Cambridge","id":157,"name":"Binney St / Sixth St"},{"position":{"latitude":42.388,"longitude":-71.1191},"warped":{"latitude":42.369239776983072,"longitude":-71.094980365263325},"municipality":"Cambridge","id":158,"name":"Porter Square Station"},{"position":{"latitude":42.3618,"longitude":-71.1081},"warped":{"latitude":42.34917146114784,"longitude":-71.088369048699334},"municipality":"Cambridge","id":159,"name":"Dana Park"},{"position":{"latitude":42.389,"longitude":-71.1328},"warped":{"latitude":42.366994479634911,"longitude":-71.115707055415584},"municipality":"Cambridge","id":160,"name":"Danehy Park"},{"position":{"latitude":42.3636,"longitude":-71.0822},"warped":{"latitude":42.360906325805509,"longitude":-71.083841081352858},"municipality":"Cambridge","id":161,"name":"Kendall Street"},{"position":{"latitude":42.3961,"longitude":-71.1395},"warped":{"latitude":42.377189966904552,"longitude":-71.116284762463195},"municipality":"Cambridge","id":162,"name":"Alewife Station at Russell Field"},{"position":{"latitude":42.3699,"longitude":-71.07},"warped":{"latitude":42.372680909692242,"longitude":-71.077254110231138},"municipality":"Cambridge","id":163,"name":"EF - North Point Park"},{"position":{"latitude":42.3928,"longitude":-71.129},"warped":{"latitude":42.362977053368212,"longitude":-71.104168732623549},"municipality":"Cambridge","id":164,"name":"Rindge Avenue - O'Neill Library"},{"position":{"latitude":42.3625,"longitude":-71.0882},"warped":{"latitude":42.360351185270169,"longitude":-71.088061024194957},"municipality":"Cambridge","id":165,"name":"Ames St at Main St"},{"position":{"latitude":42.3692,"longitude":-71.1171},"warped":{"latitude":42.359932676034411,"longitude":-71.092265318374359},"municipality":"Cambridge","id":166,"name":"Harvard University River Houses at DeWolfe St / Cowperthwaite St"},{"position":{"latitude":42.3867,"longitude":-71.119},"warped":{"latitude":42.379129634921917,"longitude":-71.099113273793733},"municipality":"Cambridge","id":167,"name":"Lesley University"},{"position":{"latitude":42.3626,"longitude":-71.1001},"warped":{"latitude":42.360833199831568,"longitude":-71.087030987565015},"municipality":"Cambridge","id":168,"name":"University Park"},{"position":{"latitude":42.3596,"longitude":-71.1013},"warped":{"latitude":42.351920488217246,"longitude":-71.080622750543441},"municipality":"Cambridge","id":169,"name":"MIT Pacific St at Purrington St"},{"position":{"latitude":42.3556,"longitude":-71.1039},"warped":{"latitude":42.350443525513747,"longitude":-71.090765140120567},"municipality":"Cambridge","id":170,"name":"MIT Vassar St"},{"position":{"latitude":42.3748,"longitude":-71.1332},"warped":{"latitude":42.359922601738411,"longitude":-71.110824140472772},"municipality":"Cambridge","id":171,"name":"Mt Auburn"},{"position":{"latitude":42.3956,"longitude":-71.1426},"warped":{"latitude":42.371951670278385,"longitude":-71.106347616856141},"municipality":"Cambridge","id":172,"name":"Alewife MBTA at Steel Place"},{"position":{"latitude":42.3578,"longitude":-71.1039},"warped":{"latitude":42.341803996819188,"longitude":-71.085519588355695},"municipality":"Cambridge","id":173,"name":"Sidney Research Campus/ Erie Street at Waverly"},{"position":{"latitude":42.3721,"longitude":-71.072},"warped":{"latitude":42.378905141167465,"longitude":-71.08434812323155},"municipality":"Cambridge","id":175,"name":"Brian P. Murphy Staircase at Child Street"},{"position":{"latitude":42.3868,"longitude":-71.0981},"warped":{"latitude":42.376142827262164,"longitude":-71.081609407863851},"municipality":"Somerville","id":176,"name":"Somerville City Hall"},{"position":{"latitude":42.3796,"longitude":-71.0953},"warped":{"latitude":42.374415665424898,"longitude":-71.072994637960463},"municipality":"Somerville","id":177,"name":"Union Square - Somerville"},{"position":{"latitude":42.3784,"longitude":-71.1057},"warped":{"latitude":42.367404823147162,"longitude":-71.08388266533278},"municipality":"Somerville","id":178,"name":"Beacon St at Washington / Kirkland"},{"position":{"latitude":42.3834,"longitude":-71.1076},"warped":{"latitude":42.371871198637002,"longitude":-71.0921567955981},"municipality":"Somerville","id":179,"name":"Conway Park - Somerville Avenue"},{"position":{"latitude":42.3856,"longitude":-71.1133},"warped":{"latitude":42.380122698747108,"longitude":-71.089214072887216},"municipality":"Somerville","id":180,"name":"Wilson Square"},{"position":{"latitude":42.397,"longitude":-71.123},"warped":{"latitude":42.373873663420255,"longitude":-71.101220410719051},"municipality":"Somerville","id":181,"name":"Davis Square"},{"position":{"latitude":42.4009,"longitude":-71.1168},"warped":{"latitude":42.376252188323406,"longitude":-71.090828259962819},"municipality":"Somerville","id":182,"name":"Powder House Circle - Nathan Tufts Park"},{"position":{"latitude":42.4045,"longitude":-71.1234},"warped":{"latitude":42.381850702338049,"longitude":-71.097402380615947},"municipality":"Somerville","id":183,"name":"Packard Ave / Powderhouse Blvd"},{"position":{"latitude":42.3908,"longitude":-71.1094},"warped":{"latitude":42.369510041144203,"longitude":-71.084308712003264},"municipality":"Somerville","id":184,"name":"Somerville Hospital at Highland Ave / Crocker St"},{"position":{"latitude":42.4028,"longitude":-71.1269},"warped":{"latitude":42.382021183832236,"longitude":-71.107371707728348},"municipality":"Somerville","id":185,"name":"Teele Square at 239 Holland St"},{"position":{"latitude":42.3984,"longitude":-71.1078},"warped":{"latitude":42.382191434709092,"longitude":-71.084730249148748},"municipality":"Somerville","id":186,"name":"Magoun Square at Trum Field"},{"position":{"latitude":42.3861,"longitude":-71.0783},"warped":{"latitude":42.383564430132111,"longitude":-71.076133471827205},"municipality":"Somerville","id":187,"name":"Broadway St at Mt Pleasant St"},{"position":{"latitude":42.3871,"longitude":-71.076},"warped":{"latitude":42.37758035628412,"longitude":-71.07076461278966},"municipality":"","id":199,"name":"18 Dorrance Warehouse"}]}
